[{"lat":"48.4143605","lon":"9.9456200","name":"REWE","opening_hours":{"1":[{"from":420,"to":1440}],"6":[{"from":420,"to":1440}]}},{"lat":"48.4245560","lon":"9.9524678","name":"Sparkasse Ulm","opening_hours":{"1":[{"from":510,"to":810},{"from":885,"to":1080}],"2":[{"from":510,"to":810},{"from":885,"to":1020}],"3":[{"from":510,"to":750}],"4":[{"from":510,"to":810},{"from":885,"to":1080}],"5":[{"from":510,"to":810},{"from":885,"to":1020}]}},{"lat":"48.4101751","lon":"9.9336394","name":"Kirsamers Backstube","opening_hours":{"1":[{"from":420,"to":780},{"from":870,"to":1110}],"5":[{"from":420,"to":780},{"from":870,"to":1110}],"6":[{"from":420,"to":780}]}},{"lat":"48.3954247","lon":"9.9962079","name":"Tagblatt","opening_hours":{"0":[{"from":0,"to":1440}],"1":[{"from":420,"to":1440}],"4":[{"from":420,"to":1440}],"5":[{"from":420,"to":120}],"6":[{"from":0,"to":120}]}},{"lat":"48.4081920","lon":"9.9587730","name":"190869","opening_hours":{"1":[{"from":0,"to":1200}],"6":[{"from":0,"to":1200}]}},{"lat":"48.4089943","lon":"9.9598871","name":"195075","opening_hours":{"1":[{"from":45,"to":750},{"from":840,"to":1080}],"4":[{"from":45,"to":750},{"from":840,"to":1080}],"5":[{"from":45,"to":750},{"from":840,"to":990}]}},{"lat":"48.4142612","lon":"9.9213792","name":"REWE","opening_hours":{"1":[{"from":420,"to":1320}],"6":[{"from":420,"to":1320}]}},{"lat":"48.4088837","lon":"9.9597122","name":"Polizeiposten Eselsberg","opening_hours":{"1":[{"from":450,"to":960}],"4":[{"from":450,"to":960}],"5":[{"from":450,"to":870}]}},{"lat":"48.4090834","lon":"9.9600643","name":"195075","opening_hours":{"1":[{"from":30,"to":750},{"from":840,"to":1020}],"3":[{"from":30,"to":750},{"from":840,"to":1020}],"4":[{"from":30,"to":750},{"from":840,"to":1050}],"5":[{"from":30,"to":750},{"from":840,"to":990}]}},{"lat":"48.4089322","lon":"9.9605289","name":"Stadtteilbibliothek Eselsberg","opening_hours":{"2":[{"from":600,"to":720},{"from":870,"to":1080}],"3":[{"from":870,"to":1080}],"5":[{"from":870,"to":1080}]}},{"lat":"48.4138869","lon":"9.9453320","name":"Volksbank Ulm","opening_hours":{}},{"lat":"48.3688055","lon":"10.0147238","name":"Sparkasse Ludwigsfeld","opening_hours":{"1":[{"from":30,"to":735},{"from":840,"to":960}],"3":[{"from":30,"to":735},{"from":840,"to":960}],"4":[{"from":30,"to":735},{"from":840,"to":1050}],"5":[{"from":30,"to":735},{"from":840,"to":960}]}},{"lat":"48.3686695","lon":"10.0143596","name":"Treff 3000","opening_hours":{"1":[{"from":0,"to":1200}],"5":[{"from":0,"to":1200}],"6":[{"from":0,"to":1080}]}},{"lat":"48.3992017","lon":"9.9834003","name":"Burger King","opening_hours":{"0":[{"from":360,"to":60}],"4":[{"from":360,"to":60}],"5":[{"from":360,"to":120}],"6":[{"from":360,"to":120}]}},{"lat":"48.4152051","lon":"9.9438280","name":"13072","opening_hours":{"1":[{"from":420,"to":1200}],"5":[{"from":420,"to":1200}]}},{"lat":"48.4142768","lon":"9.9456790","name":"Sparkasse Ulm","opening_hours":{}},{"lat":"48.4133389","lon":"9.9460579","name":"13072","opening_hours":{"1":[{"from":420,"to":1200}],"5":[{"from":420,"to":1200}]}},{"lat":"48.4120827","lon":"9.9505978","name":"118863","opening_hours":{"1":[{"from":420,"to":1200}],"5":[{"from":420,"to":1200}]}},{"lat":"48.4119583","lon":"9.9565503","name":"118863","opening_hours":{"1":[{"from":420,"to":1200}],"5":[{"from":420,"to":1200}]}},{"lat":"48.4140294","lon":"9.9217653","name":"Müller","opening_hours":{"1":[{"from":30,"to":1200}],"5":[{"from":30,"to":1200}],"6":[{"from":510,"to":1080}]}},{"lat":"48.3989138","lon":"10.0057567","name":"Barfüßer Neu-Ulm","opening_hours":{"0":[{"from":0,"to":60}],"1":[{"from":0,"to":60}]}},{"lat":"48.3514751","lon":"9.9742354","name":"Apotheke 2000","opening_hours":{"1":[{"from":0,"to":1110}],"5":[{"from":0,"to":1110}],"6":[{"from":0,"to":780}]}},{"lat":"48.3511711","lon":"9.9734650","name":"Apotheke am Tannenplatz","opening_hours":{"1":[{"from":0,"to":1110}],"5":[{"from":0,"to":1110}],"6":[{"from":0,"to":780}]}},{"lat":"48.4089904","lon":"9.9597127","name":"Stifter Apotheke","opening_hours":{"1":[{"from":0,"to":750},{"from":870,"to":1080}],"5":[{"from":0,"to":750},{"from":870,"to":1080}],"6":[{"from":30,"to":750}]}},{"lat":"48.4094024","lon":"9.9590649","name":"REWE","opening_hours":{"1":[{"from":480,"to":1320}],"6":[{"from":480,"to":1320}]}},{"lat":"48.4088898","lon":"9.9608799","name":"Mama - Mia","opening_hours":{"0":[{"from":660,"to":1440}],"1":[{"from":660,"to":1440}]}},{"lat":"48.4087338","lon":"9.9672367","name":"Gasthaus Stifterstuben","opening_hours":{"1":[{"from":0,"to":1440}],"3":[{"from":0,"to":1440}]}},{"lat":"48.4076279","lon":"9.9544418","name":"195075","opening_hours":{}},{"lat":"48.4078200","lon":"9.9545856","name":"195075","opening_hours":{}},{"lat":"48.4079473","lon":"9.9547578","name":"195075","opening_hours":{}},{"lat":"48.4085679","lon":"9.9673097","name":"Dr. med Heinrich Krach","opening_hours":{"1":[{"from":0,"to":720},{"from":960,"to":1140}],"2":[{"from":0,"to":720},{"from":960,"to":1080}],"3":[{"from":0,"to":720},{"from":960,"to":1080}],"4":[{"from":0,"to":720},{"from":960,"to":1140}],"5":[{"from":0,"to":720}]}},{"lat":"48.3978195","lon":"9.9951476","name":"ADTV Tanzschule Ten-Dance","opening_hours":{}},{"lat":"48.4219084","lon":"9.9553523","name":"Mensa","opening_hours":{"1":[{"from":690,"to":825}],"4":[{"from":690,"to":825}],"5":[{"from":690,"to":810}]}},{"lat":"48.3957972","lon":"9.9812787","name":"Casa de España","opening_hours":{"0":[{"from":660,"to":1320}],"5":[{"from":1020,"to":1380}],"6":[{"from":960,"to":1380}]}},{"lat":"48.4040426","lon":"9.9770106","name":"IKEA Restaurant","opening_hours":{"1":[{"from":570,"to":1260}],"5":[{"from":570,"to":1320}],"6":[{"from":570,"to":1260}]}},{"lat":"48.4210528","lon":"9.9488530","name":"Cafeteria Universität West","opening_hours":{"1":[{"from":0,"to":990}],"4":[{"from":0,"to":990}],"5":[{"from":0,"to":900}]}},{"lat":"48.4004788","lon":"9.9970875","name":"Dive Computer Discount","opening_hours":{"1":[{"from":30,"to":1110}],"5":[{"from":30,"to":1110}],"6":[{"from":30,"to":900}]}},{"lat":"48.4006757","lon":"9.9893257","name":"Peppers","opening_hours":{"1":[{"from":1080,"to":1380}],"5":[{"from":1080,"to":1380}]}},{"lat":"48.3943034","lon":"9.9551691","name":"Zum Söflinger","opening_hours":{"0":[{"from":660,"to":1380}],"1":[{"from":660,"to":1380}],"6":[{"from":900,"to":1380}]}},{"lat":"48.3924708","lon":"10.0122328","name":"Penny Markt","opening_hours":{"1":[{"from":480,"to":1200}],"5":[{"from":480,"to":1200}],"6":[{"from":420,"to":1200}]}},{"lat":"48.3940158","lon":"9.9978744","name":"Zahnklinik Ars Dentalis","opening_hours":{"0":[{"from":600,"to":1020}],"1":[{"from":420,"to":1260}],"5":[{"from":420,"to":1260}],"6":[{"from":600,"to":1020}]}},{"lat":"48.3936331","lon":"10.0025667","name":"City-Hotel Garni","opening_hours":{"0":[{"from":360,"to":1140}],"1":[{"from":360,"to":1140}]}},{"lat":"48.3968962","lon":"10.0022832","name":"Donau-Hotel Neu-Ulm","opening_hours":{"0":[{"from":0,"to":1260}],"1":[{"from":450,"to":1260}],"5":[{"from":450,"to":1260}],"6":[{"from":0,"to":1260}]}},{"lat":"48.3936497","lon":"9.9977807","name":"G.D Tuning","opening_hours":{"1":[{"from":900,"to":1140}],"2":[{"from":600,"to":840}],"3":[{"from":900,"to":1140}],"4":[{"from":600,"to":840}],"5":[{"from":900,"to":1140}],"6":[{"from":600,"to":840}]}},{"lat":"48.3914676","lon":"9.9937429","name":"Kleintierpraxis Thierer","opening_hours":{"1":[{"from":600,"to":720},{"from":960,"to":1080}],"2":[{"from":600,"to":720},{"from":960,"to":1080}],"3":[{"from":600,"to":720}],"4":[{"from":600,"to":720},{"from":960,"to":1080}],"5":[{"from":600,"to":720},{"from":960,"to":1080}],"6":[{"from":600,"to":720}]}},{"lat":"48.3934660","lon":"9.9987935","name":"Eco-Express Waschsalon","opening_hours":{"1":[{"from":360,"to":1380}],"6":[{"from":360,"to":1380}]}},{"lat":"48.3969113","lon":"10.0026093","name":"Elektro Wanner","opening_hours":{"1":[{"from":30,"to":750},{"from":870,"to":990}],"4":[{"from":30,"to":750},{"from":870,"to":990}],"5":[{"from":30,"to":720}]}},{"lat":"48.3958881","lon":"10.0008827","name":"PC-Spezialist","opening_hours":{"1":[{"from":570,"to":1080}],"5":[{"from":570,"to":1080}],"6":[{"from":30,"to":780}]}},{"lat":"48.4212759","lon":"10.0056591","name":"Siedepunkt","opening_hours":{"1":[{"from":1080,"to":1320}],"6":[{"from":1080,"to":1320}]}},{"lat":"48.4213670","lon":"10.0055966","name":"Siedepunkt","opening_hours":{}},{"lat":"48.3992328","lon":"9.9831790","name":"Point Markt","opening_hours":{"0":[{"from":360,"to":1320}],"1":[{"from":360,"to":1320}]}},{"lat":"48.3949067","lon":"10.0149015","name":"Kaufland","opening_hours":{"1":[{"from":0,"to":1200}],"5":[{"from":0,"to":1200}],"6":[{"from":420,"to":1200}]}},{"lat":"48.3946525","lon":"10.0155017","name":"Deichmann","opening_hours":{"1":[{"from":0,"to":1140}],"5":[{"from":0,"to":1140}],"6":[{"from":0,"to":1080}]}},{"lat":"48.3951834","lon":"10.0152802","name":"McFit","opening_hours":{}},{"lat":"48.3961147","lon":"10.0162368","name":"AUTOplus Neu-Ulm","opening_hours":{"1":[{"from":0,"to":1080}],"5":[{"from":0,"to":1080}],"6":[{"from":0,"to":780}]}},{"lat":"48.3947705","lon":"10.0153074","name":"Vögele","opening_hours":{"1":[{"from":30,"to":1110}],"5":[{"from":30,"to":1110}],"6":[{"from":30,"to":960}]}},{"lat":"48.3925097","lon":"9.9963618","name":"Wasch-Treff","opening_hours":{"1":[{"from":420,"to":1380}],"6":[{"from":420,"to":1380}]}},{"lat":"48.3889218","lon":"10.0173195","name":"48 Grad Nord","opening_hours":{"1":[{"from":0,"to":1080}],"4":[{"from":0,"to":1080}],"5":[{"from":0,"to":960}],"6":[{"from":0,"to":840}]}},{"lat":"48.3981216","lon":"10.0038768","name":"Diamond`s - Bar & Lounge","opening_hours":{"0":[{"from":1140,"to":1440}],"2":[{"from":1140,"to":1440}],"4":[{"from":1140,"to":1440}],"5":[{"from":1140,"to":180}],"6":[{"from":1140,"to":180}]}},{"lat":"48.3967445","lon":"10.0022322","name":"Home","opening_hours":{"0":[{"from":660,"to":180}],"1":[{"from":960,"to":180}],"5":[{"from":960,"to":180}],"6":[{"from":660,"to":180}]}},{"lat":"48.3979674","lon":"10.0040316","name":"Radweg Uwe Schneider","opening_hours":{"2":[{"from":690,"to":1110}],"4":[{"from":690,"to":1110}],"5":[{"from":690,"to":1200}],"6":[{"from":450,"to":780}]}},{"lat":"48.4007628","lon":"10.0166292","name":"Schubert-Apotheke","opening_hours":{"1":[{"from":0,"to":750},{"from":840,"to":1110}],"5":[{"from":0,"to":750},{"from":840,"to":1110}],"6":[{"from":0,"to":750}]}},{"lat":"48.4016867","lon":"10.0166566","name":"Fahrradservice Altunay","opening_hours":{"1":[{"from":0,"to":720},{"from":840,"to":1140}],"5":[{"from":0,"to":720},{"from":840,"to":1140}],"6":[{"from":0,"to":900}]}},{"lat":"48.3948638","lon":"9.9981816","name":"Hairlounge","opening_hours":{"2":[{"from":0,"to":1080}],"5":[{"from":0,"to":1080}],"6":[{"from":0,"to":840}]}},{"lat":"48.4228430","lon":"9.9534258","name":"Cafeteria B","opening_hours":{"1":[{"from":45,"to":840}],"5":[{"from":45,"to":840}]}},{"lat":"48.4017282","lon":"9.9876406","name":"Tokyo","opening_hours":{"0":[{"from":690,"to":870},{"from":1080,"to":1410}],"1":[{"from":690,"to":870},{"from":1080,"to":1410}]}},{"lat":"48.3682142","lon":"10.0088363","name":"Metzgerei Stötter","opening_hours":{"1":[{"from":390,"to":780},{"from":870,"to":1080}],"5":[{"from":390,"to":780},{"from":870,"to":1080}],"6":[{"from":390,"to":750}]}},{"lat":"48.3681392","lon":"10.0088489","name":"Salon Victor","opening_hours":{"2":[{"from":0,"to":720},{"from":780,"to":1080}],"5":[{"from":0,"to":720},{"from":780,"to":1080}],"6":[{"from":0,"to":750}]}},{"lat":"48.3948164","lon":"10.0155971","name":"Top Hair","opening_hours":{"1":[{"from":0,"to":1200}],"5":[{"from":0,"to":1200}],"6":[{"from":0,"to":1080}]}},{"lat":"48.3941597","lon":"9.9981218","name":"Abele-Optik","opening_hours":{"1":[{"from":0,"to":1110}],"5":[{"from":0,"to":1110}],"6":[{"from":0,"to":840}]}},{"lat":"48.3947905","lon":"9.9995742","name":"Optik Salzmann","opening_hours":{"1":[{"from":0,"to":1140}],"5":[{"from":0,"to":1140}],"6":[{"from":0,"to":840}]}},{"lat":"48.3959984","lon":"10.0010551","name":"WM Optik Haus","opening_hours":{"1":[{"from":0,"to":1140}],"5":[{"from":0,"to":1140}],"6":[{"from":0,"to":840}]}},{"lat":"48.3958621","lon":"10.0032490","name":"Nur Travel","opening_hours":{"1":[{"from":0,"to":1140}],"5":[{"from":0,"to":1140}],"6":[{"from":0,"to":900}]}},{"lat":"48.3671453","lon":"10.0087788","name":"Kleintierpraxis Dr. Martin Schmidt","opening_hours":{"1":[{"from":0,"to":720},{"from":900,"to":1080}],"5":[{"from":0,"to":720},{"from":900,"to":1080}],"6":[{"from":600,"to":720}]}},{"lat":"48.3457961","lon":"9.9767786","name":"49055","opening_hours":{}},{"lat":"48.3462718","lon":"9.9726514","name":"49055","opening_hours":{}},{"lat":"48.4093192","lon":"9.9599503","name":"Delizie Italiané RAINÒ","opening_hours":{"0":[{"from":510,"to":1140}],"2":[{"from":510,"to":1140}]}},{"lat":"48.3945184","lon":"9.9971132","name":"CAP-Markt","opening_hours":{"1":[{"from":30,"to":1110}],"5":[{"from":30,"to":1110}],"6":[{"from":0,"to":1110}]}},{"lat":"48.4052517","lon":"10.0233528","name":"Kanback","opening_hours":{"0":[{"from":0,"to":660}],"1":[{"from":360,"to":1080}],"5":[{"from":360,"to":1080}],"6":[{"from":360,"to":780}]}},{"lat":"48.4217936","lon":"9.9555019","name":"13072","opening_hours":{"1":[{"from":420,"to":1260}],"5":[{"from":420,"to":1260}]}},{"lat":"48.4220216","lon":"9.9554160","name":"Uni Bistro","opening_hours":{"1":[{"from":660,"to":1110}],"4":[{"from":660,"to":1110}],"5":[{"from":660,"to":840}]}},{"lat":"48.3983626","lon":"10.0050361","name":"Fahrschule Jarisch","opening_hours":{"2":[{"from":1050,"to":1200}],"4":[{"from":1050,"to":1200}]}},{"lat":"48.4132147","lon":"9.9537266","name":"Bücherkiste Kelternweg","opening_hours":{}},{"lat":"48.3706757","lon":"10.0080678","name":"Fahrschule Gruber","opening_hours":{"2":[],"4":[]}},{"lat":"48.3939409","lon":"10.0035857","name":"Fahrschule Gruber","opening_hours":{"1":[],"3":[]}},{"lat":"48.3692431","lon":"10.0093142","name":"Fahrschule Engel","opening_hours":{"1":[{"from":1110,"to":1140}],"3":[{"from":1110,"to":1140}]}},{"lat":"48.3576755","lon":"9.9751648","name":"Gaybar-Ulm","opening_hours":{"0":[{"from":840,"to":60}],"3":[{"from":840,"to":60}],"4":[{"from":840,"to":60}],"5":[{"from":840,"to":180}],"6":[{"from":840,"to":180}]}},{"lat":"48.3991683","lon":"9.9921172","name":"Rossmann","opening_hours":{"1":[{"from":30,"to":1200}],"2":[{"from":30,"to":1200}],"3":[{"from":0,"to":1200}],"4":[{"from":30,"to":1200}],"5":[{"from":30,"to":1200}],"6":[{"from":0,"to":1200}]}},{"lat":"48.3981810","lon":"9.9877142","name":"Hirsch-Apotheke","opening_hours":{"1":[{"from":0,"to":1200}],"6":[{"from":0,"to":1200}]}},{"lat":"48.3991372","lon":"9.9853834","name":"Sport Sohn","opening_hours":{"1":[{"from":30,"to":1200}],"5":[{"from":30,"to":1200}],"6":[{"from":30,"to":1140}]}},{"lat":"48.4088944","lon":"9.9606721","name":"Friseur Helga Baumann","opening_hours":{"2":[{"from":30,"to":1080}],"5":[{"from":30,"to":1080}],"6":[{"from":30,"to":780}]}},{"lat":"48.3975628","lon":"9.9917601","name":"BellaVista","opening_hours":{}},{"lat":"48.3845721","lon":"10.0240889","name":"Häussler Leihservice für Veranstaltungen","opening_hours":{"1":[{"from":0,"to":1020}],"5":[{"from":0,"to":1020}]}},{"lat":"48.3970353","lon":"10.0137699","name":"H & H Kfz-Meisterbetrieb","opening_hours":{"1":[{"from":450,"to":1080}],"5":[{"from":450,"to":1080}]}},{"lat":"48.4030685","lon":"9.9873867","name":"Finkbeiner","opening_hours":{"1":[{"from":0,"to":1080}],"5":[{"from":0,"to":1080}],"6":[{"from":0,"to":840}]}},{"lat":"48.4014406","lon":"9.9877385","name":"Deutsche Bundesbank","opening_hours":{"1":[{"from":30,"to":750}],"5":[{"from":30,"to":750}]}},{"lat":"48.3521015","lon":"9.9743335","name":"Polizeiposten Ulm-Wiblingen","opening_hours":{"1":[{"from":420,"to":1200}],"5":[{"from":420,"to":1200}]}},{"lat":"48.4015154","lon":"9.9966224","name":"Arlt","opening_hours":{"1":[{"from":30,"to":1110}],"5":[{"from":30,"to":1110}],"6":[{"from":30,"to":1080}]}},{"lat":"48.4008885","lon":"9.9965768","name":"Matratzen Concord","opening_hours":{"1":[{"from":600,"to":1140}],"5":[{"from":600,"to":1140}],"6":[{"from":600,"to":960}]}},{"lat":"48.4015667","lon":"9.9755507","name":"Holz Waschparadies","opening_hours":{"1":[{"from":420,"to":1320}],"5":[{"from":420,"to":1320}],"6":[{"from":600,"to":1200}]}},{"lat":"48.4060899","lon":"10.0064238","name":"REWE","opening_hours":{"1":[{"from":0,"to":1440}],"6":[{"from":0,"to":1440}]}},{"lat":"48.4164662","lon":"10.0667889","name":"Bavaria Apotheke","opening_hours":{"1":[{"from":30,"to":750},{"from":840,"to":1080}],"2":[{"from":30,"to":750},{"from":840,"to":1080}],"3":[{"from":30,"to":750}],"4":[{"from":30,"to":750},{"from":840,"to":1080}],"5":[{"from":30,"to":750},{"from":840,"to":1080}],"6":[{"from":0,"to":720}]}},{"lat":"48.4223823","lon":"9.9559102","name":"Cafeteria A","opening_hours":{"1":[{"from":450,"to":1080}],"4":[{"from":450,"to":1080}],"5":[{"from":450,"to":1020}]}},{"lat":"48.3954761","lon":"9.9551247","name":"Zum Schatten","opening_hours":{"1":[{"from":1020,"to":1410}],"6":[{"from":1020,"to":1410}]}},{"lat":"48.4423633","lon":"9.9864486","name":"CAP-Markt","opening_hours":{"1":[{"from":30,"to":1110}],"5":[{"from":30,"to":1110}],"6":[{"from":0,"to":780}]}},{"lat":"48.3957645","lon":"9.9569275","name":"Confishare - Station Ulm Schlossergasse","opening_hours":{}},{"lat":"48.3929078","lon":"9.9999034","name":"Posthorn","opening_hours":{"2":[{"from":690,"to":855},{"from":1050,"to":1440}],"4":[{"from":690,"to":855},{"from":1050,"to":1440}]}},{"lat":"48.3949798","lon":"10.0012397","name":"Neu-Ulmer Zeitung","opening_hours":{"1":[{"from":0,"to":960}],"5":[{"from":0,"to":960}]}},{"lat":"48.3936166","lon":"9.9999409","name":"Kanback","opening_hours":{"0":[{"from":0,"to":660}],"1":[{"from":360,"to":1080}],"5":[{"from":360,"to":1080}],"6":[{"from":360,"to":780}]}},{"lat":"48.4093009","lon":"9.9596956","name":"Metzgerei Hörman","opening_hours":{"1":[{"from":420,"to":1080},{"from":450,"to":780}],"5":[{"from":420,"to":1080},{"from":450,"to":780}],"6":[{"from":420,"to":1080},{"from":450,"to":780}]}},{"lat":"48.4092963","lon":"9.9595107","name":"Änderungsschneiderei","opening_hours":{"1":[{"from":510,"to":750},{"from":870,"to":1080},{"from":510,"to":750}],"5":[{"from":510,"to":750},{"from":870,"to":1080},{"from":510,"to":750}],"6":[{"from":510,"to":750},{"from":870,"to":1080},{"from":510,"to":750}]}},{"lat":"48.3989851","lon":"9.9885312","name":"Altbierlokal","opening_hours":{}},{"lat":"48.3942298","lon":"9.9982580","name":"Sparkasse NU-Petrusplatz","opening_hours":{"1":[{"from":30,"to":960}],"3":[{"from":30,"to":960}],"4":[{"from":30,"to":1050}],"5":[{"from":30,"to":960}]}},{"lat":"48.3983311","lon":"10.0168342","name":"Café Kings","opening_hours":{"0":[{"from":840,"to":1440}],"1":[{"from":960,"to":1440}],"4":[{"from":960,"to":1440}],"5":[{"from":960,"to":120}],"6":[{"from":240,"to":120}]}},{"lat":"48.3907001","lon":"9.9882106","name":"Restaurant-Pizzeria Armerina","opening_hours":{"0":[{"from":660,"to":1320}],"1":[{"from":660,"to":1380}],"6":[{"from":660,"to":1320}],"undefined":[{"from":660,"to":1380}]}},{"lat":"48.4070835","lon":"10.0449255","name":"Hotel Sonnenkeller","opening_hours":{"0":[{"from":420,"to":1380}],"1":[{"from":420,"to":1380}]}},{"lat":"48.3771793","lon":"10.0124206","name":"Allianz Neu-Ulm","opening_hours":{"1":[{"from":0,"to":780},{"from":900,"to":1080}],"4":[{"from":0,"to":780},{"from":900,"to":1080}],"5":[{"from":0,"to":780}]}},{"lat":"48.3962260","lon":"9.9580380","name":"Zum Franzl","opening_hours":{}},{"lat":"48.4084470","lon":"10.0352144","name":"Burger Point","opening_hours":{"0":[{"from":660,"to":1380}],"4":[{"from":660,"to":1380}],"5":[{"from":660,"to":1440}],"6":[{"from":660,"to":1440}]}},{"lat":"48.3952286","lon":"9.9967140","name":"Çiğköftem","opening_hours":{"1":[{"from":0,"to":1140}],"5":[{"from":0,"to":1140}],"6":[{"from":0,"to":1020}]}},{"lat":"48.4085160","lon":"10.0352573","name":"Pizza-Express Mario","opening_hours":{"0":[{"from":660,"to":1380}],"1":[{"from":660,"to":840},{"from":1020,"to":1380}],"5":[{"from":660,"to":840},{"from":1020,"to":1380}],"6":[{"from":660,"to":1380}]}},{"lat":"48.3886239","lon":"10.0233844","name":"FKK Safari","opening_hours":{"0":[{"from":660,"to":120},{"from":660,"to":240}],"4":[{"from":660,"to":120},{"from":660,"to":240}],"5":[{"from":660,"to":120},{"from":660,"to":240}],"6":[{"from":660,"to":120},{"from":660,"to":240}]}},{"lat":"48.3942195","lon":"9.9705193","name":"Premium Personal","opening_hours":{"1":[{"from":0,"to":720},{"from":780,"to":1020}],"5":[{"from":0,"to":720},{"from":780,"to":1020}]}}]
